[{"type":"A","id":"bar","name":"Bar","start":"10:00","end":"12:00","P\/S":"P","candidates":[{"business_status":"OPERATIONAL","geometry":{"location":{"lat":45.7504293999999873676642891950905323028564453125,"lng":4.82591300000000078540551839978434145450592041015625},"viewport":{"northeast":{"lat":45.7517302302914998790583922527730464935302734375,"lng":4.8272922302915031167458437266759574413299560546875},"southwest":{"lat":45.74903226970850056432027486152946949005126953125,"lng":4.82459426970849758475878843455575406551361083984375}}},"icon":"https:\/\/maps.gstatic.com\/mapfiles\/place_api\/icons\/v1\/png_71\/lodging-71.png","icon_background_color":"#909CE1","icon_mask_base_uri":"https:\/\/maps.gstatic.com\/mapfiles\/place_api\/icons\/v2\/hotel_pinlet","name":"Inter-Hotel de la Loire","opening_hours":{"open_now":true},"photos":[{"height":4912,"html_attributions":["<a href=\"https:\/\/maps.google.com\/maps\/contrib\/111716541159650769910\">Hotelo Lyon Ainay Ex H\u00f4tel de la Loire<\/a>"],"photo_reference":"AW30NDwdmlL_tibfRblB1CzfFUDClAiH59j1Er1RwSRCJef3I3btslgGNUXaB9iYRtNifrTBzoaIAMthMWrECbUqaqTnPKMm0qR2zF7TE6dJDof0bJWcSFiFaRc3fC0rPbSPYIvaS1X_cNglHUkORy2LS1vu49YZs2DF2YXETXWz5Mf0cJSq","width":7360}],"place_id":"ChIJOwuKW7Pr9EcRKNdIv8l240E","plus_code":{"compound_code":"QR2G+59 Lyon, France","global_code":"8FQ6QR2G+59"},"rating":3.600000000000000088817841970012523233890533447265625,"reference":"ChIJOwuKW7Pr9EcRKNdIv8l240E","scope":"GOOGLE","types":["lodging","bar","point_of_interest","establishment"],"user_ratings_total":218,"vicinity":"19 Cours de Verdun Gensoul, Lyon"},{"business_status":"OPERATIONAL","geometry":{"location":{"lat":45.74807059999999836463757674209773540496826171875,"lng":4.828672499999999701003616792149841785430908203125},"viewport":{"northeast":{"lat":45.74948903029149249732654425315558910369873046875,"lng":4.8299254802915019268994001322425901889801025390625},"southwest":{"lat":45.7467910697084931825884268619120121002197265625,"lng":4.827227519708497283090764540247619152069091796875}}},"icon":"https:\/\/maps.gstatic.com\/mapfiles\/place_api\/icons\/v1\/png_71\/lodging-71.png","icon_background_color":"#909CE1","icon_mask_base_uri":"https:\/\/maps.gstatic.com\/mapfiles\/place_api\/icons\/v2\/hotel_pinlet","name":"Hotel Victoria","opening_hours":{"open_now":true},"photos":[{"height":3356,"html_attributions":["<a href=\"https:\/\/maps.google.com\/maps\/contrib\/106371763599570414001\">Hotel Victoria<\/a>"],"photo_reference":"AW30NDwHqnHPuA__5uGHwwLUl8ETaek2PY54iVe0ELDPCQvvMsjTIZzErko9QHy2mDp2c6Sepbjbwo39rmxKblc_n2PrNd0zLROgKjqhBS4S0KxVMWLFdfZq1_MmRdskr3GjImmnVzXAuThK_TtOX2XNxhCm6dKuU_5i4xgSzklIu67bVWrL","width":4812}],"place_id":"ChIJE0a5EEvq9EcRcJ9CWFGXgiM","plus_code":{"compound_code":"PRXH+6F Lyon, France","global_code":"8FQ6PRXH+6F"},"rating":3.79999999999999982236431605997495353221893310546875,"reference":"ChIJE0a5EEvq9EcRcJ9CWFGXgiM","scope":"GOOGLE","types":["night_club","lodging","bar","point_of_interest","establishment"],"user_ratings_total":795,"vicinity":"3 Rue Delandine, Lyon"},{"business_status":"OPERATIONAL","geometry":{"location":{"lat":45.76709960000000165791789186187088489532470703125,"lng":4.8450812000000009760469765751622617244720458984375},"viewport":{"northeast":{"lat":45.76845888029149733711165026761591434478759765625,"lng":4.8465379302915021497710768016986548900604248046875},"southwest":{"lat":45.76576091970849802237353287637233734130859375,"lng":4.84383996970849839414086090982891619205474853515625}}},"icon":"https:\/\/maps.gstatic.com\/mapfiles\/place_api\/icons\/v1\/png_71\/lodging-71.png","icon_background_color":"#909CE1","icon_mask_base_uri":"https:\/\/maps.gstatic.com\/mapfiles\/place_api\/icons\/v2\/hotel_pinlet","name":"H\u00f4tel Tagg\u00e2t","opening_hours":{"open_now":true},"photos":[{"height":3495,"html_attributions":["<a href=\"https:\/\/maps.google.com\/maps\/contrib\/109302006329157323059\">H\u00f4tel Tagg\u00e2t<\/a>"],"photo_reference":"AW30NDyi8EUnEFmHU9Uvuau6Qug0KuO1jlHQ58u9Emk35FbsNVr1ZNB6QRZSGdRg0gwHeUSod4hBaBWaDGuwuoXhDBpYx7Rm8eMUSPp381_BPvg-dsAqb_5h7u3Wh4QVkgwL316OomUZ6zUrOllWf87P9RgDk8B5-JIBi8vCYMcZ-BpiLkHk","width":5243}],"place_id":"ChIJj7oJvfbq9EcRU0N8KAF4JH8","plus_code":{"compound_code":"QR8W+R2 Lyon, France","global_code":"8FQ6QR8W+R2"},"rating":4,"reference":"ChIJj7oJvfbq9EcRU0N8KAF4JH8","scope":"GOOGLE","types":["lodging","bar","point_of_interest","establishment"],"user_ratings_total":278,"vicinity":"110 Rue Vend\u00f4me, Lyon"},{"business_status":"OPERATIONAL","geometry":{"location":{"lat":45.76083260000000763056959840469062328338623046875,"lng":4.8375889000000000805812305770814418792724609375},"viewport":{"northeast":{"lat":45.76226528029150131260394118726253509521484375,"lng":4.839005280291502231193589977920055389404296875},"southwest":{"lat":45.759567319708509103293181397020816802978515625,"lng":4.8363073197084975873849543859250843524932861328125}}},"icon":"https:\/\/maps.gstatic.com\/mapfiles\/place_api\/icons\/v1\/png_71\/lodging-71.png","icon_background_color":"#909CE1","icon_mask_base_uri":"https:\/\/maps.gstatic.com\/mapfiles\/place_api\/icons\/v2\/hotel_pinlet","name":"Boscolo Lyon Hotel & Spa","photos":[{"height":4766,"html_attributions":["<a href=\"https:\/\/maps.google.com\/maps\/contrib\/116437170016966779107\">Boscolo Lyon Hotel &amp; Spa<\/a>"],"photo_reference":"AW30NDzR-4BZNF4ZiFA5pySd4yLDYned1nyiKaqKSrED7STrvq_ZQUYdKPLjgeRbdlIByOuPMlHecAf587P8HeS9cZIu2vNb2uGR6OH8vFU2N2TgEOvCDTiEYDtySYl7nPBYbkmEhfVe102A0AI5Hey_EIMy3oOKolLNMgj0-C1D4r_e9G9i","width":7174}],"place_id":"ChIJh9SOPDbr9EcRL1YsIQcBk80","plus_code":{"compound_code":"QR6Q+82 Lyon, France","global_code":"8FQ6QR6Q+82"},"rating":4.29999999999999982236431605997495353221893310546875,"reference":"ChIJh9SOPDbr9EcRL1YsIQcBk80","scope":"GOOGLE","types":["spa","lodging","bar","restaurant","food","point_of_interest","establishment"],"user_ratings_total":578,"vicinity":"11 Quai Jules Courmont, Lyon"},{"business_status":"OPERATIONAL","geometry":{"location":{"lat":45.7593001999999984263922669924795627593994140625,"lng":4.8359131000000008526740202796645462512969970703125},"viewport":{"northeast":{"lat":45.76065093029149721814974327571690082550048828125,"lng":4.83732528029150188331186654977500438690185546875},"southwest":{"lat":45.757952969708497903411625884473323822021484375,"lng":4.83462731970849812768165065790526568889617919921875}}},"icon":"https:\/\/maps.gstatic.com\/mapfiles\/place_api\/icons\/v1\/png_71\/generic_business-71.png","icon_background_color":"#7B9EB0","icon_mask_base_uri":"https:\/\/maps.gstatic.com\/mapfiles\/place_api\/icons\/v2\/generic_pinlet","name":"Brasserie Le R\u00e9publique","opening_hours":{"open_now":true},"photos":[{"height":3928,"html_attributions":["<a href=\"https:\/\/maps.google.com\/maps\/contrib\/107663370683555773711\">Brasserie Le R\u00e9publique<\/a>"],"photo_reference":"AW30NDwVZ00nrjGVBX43QqNJiGX6BVCPbE3gyUr8ruTSd4X5M4tNA03V3t9czPMDYYEH8WOuv5Avffx6BTO5h676EReb7KGHK5xmMPnh-t2nuhdI7YNIYT66V_FgvTqj6hoZ-KZlyFbDRUR0OyOvopPMGGAoMUCbkh9iajoIqaZvMXR0PJ1N","width":9476}],"place_id":"ChIJiTqIzVbq9EcRXJNwQvy81GU","plus_code":{"compound_code":"QR5P+P9 Lyon, France","global_code":"8FQ6QR5P+P9"},"price_level":2,"rating":3.899999999999999911182158029987476766109466552734375,"reference":"ChIJiTqIzVbq9EcRXJNwQvy81GU","scope":"GOOGLE","types":["bar","restaurant","food","point_of_interest","establishment"],"user_ratings_total":1928,"vicinity":"Place de l'h\u00f4pital, 19 Rue Louis Paufique, Lyon"},{"business_status":"OPERATIONAL","geometry":{"location":{"lat":45.7663318000000032270691008307039737701416015625,"lng":4.83699010000000040321310734725557267665863037109375},"viewport":{"northeast":{"lat":45.7675791802914915251676575280725955963134765625,"lng":4.8382575802915024354433626285754144191741943359375},"southwest":{"lat":45.7648812197084993158568977378308773040771484375,"lng":4.83555961970849779163472703658044338226318359375}}},"icon":"https:\/\/maps.gstatic.com\/mapfiles\/place_api\/icons\/v1\/png_71\/bar-71.png","icon_background_color":"#FF9E67","icon_mask_base_uri":"https:\/\/maps.gstatic.com\/mapfiles\/place_api\/icons\/v2\/bar_pinlet","name":"L Bar food & drink","opening_hours":{"open_now":false},"photos":[{"height":454,"html_attributions":["<a href=\"https:\/\/maps.google.com\/maps\/contrib\/104096513705200382257\">L Bar food &amp; drink<\/a>"],"photo_reference":"AW30NDxNimePgHPQl9qQjNoSwPXhGozp6qshC-jiDvdiayP8uMwTYvKdpsuz5WfIrZnkplm8NtGmLlbRqVjvKgJKuKj9pJoCAdkxP6wpsweX3z5z4QMLEWfBMDcfBOZEs7A7ToV0BflCpGuvVP6NA1idJlPas56ReQnH4rEKp9JyxcAtg_yb","width":806}],"place_id":"ChIJF8T3Hvnq9EcRusr5rzShjwc","plus_code":{"compound_code":"QR8P+GQ Lyon, France","global_code":"8FQ6QR8P+GQ"},"price_level":2,"rating":4.79999999999999982236431605997495353221893310546875,"reference":"ChIJF8T3Hvnq9EcRusr5rzShjwc","scope":"GOOGLE","types":["bar","restaurant","food","point_of_interest","establishment"],"user_ratings_total":2904,"vicinity":"19 Rue du Garet, Lyon"},{"business_status":"OPERATIONAL","geometry":{"location":{"lat":45.74974999999999880628820392303168773651123046875,"lng":4.8439148999999996902943166787736117839813232421875},"viewport":{"northeast":{"lat":45.75107113029149985550247947685420513153076171875,"lng":4.845310780291502084082821966148912906646728515625},"southwest":{"lat":45.7483731697085005407643620856106281280517578125,"lng":4.8426128197084974402741863741539418697357177734375}}},"icon":"https:\/\/maps.gstatic.com\/mapfiles\/place_api\/icons\/v1\/png_71\/restaurant-71.png","icon_background_color":"#FF9E67","icon_mask_base_uri":"https:\/\/maps.gstatic.com\/mapfiles\/place_api\/icons\/v2\/restaurant_pinlet","name":"Vieille Canaille","opening_hours":{"open_now":false},"photos":[{"height":750,"html_attributions":["<a href=\"https:\/\/maps.google.com\/maps\/contrib\/108520149012405958268\">Vieille Canaille<\/a>"],"photo_reference":"AW30NDzn_NpC8qcZvcg9Q_6eYL_d1oxPw0T2PjYSh3rprSEOWkE9KpDIkG6DcVxbYcWy5otZPfK_cGpHdb9AyvYCtoa0J-lmoqW4lKwTJaEubuOZqULkqU9jPpeSjxd45qwoyp_2hUbmuwxTupyhymwGa9nZbjaJ7jip3Olp0gU7OXfPEIUR","width":750}],"place_id":"ChIJbUqy5UPq9EcR4JjWxiRQKpc","plus_code":{"compound_code":"PRXV+WH Lyon, France","global_code":"8FQ6PRXV+WH"},"price_level":2,"rating":4.5999999999999996447286321199499070644378662109375,"reference":"ChIJbUqy5UPq9EcR4JjWxiRQKpc","scope":"GOOGLE","types":["bar","restaurant","food","point_of_interest","establishment"],"user_ratings_total":722,"vicinity":"14 Rue Saint-J\u00e9r\u00f4me, Lyon"},{"business_status":"OPERATIONAL","geometry":{"location":{"lat":45.7589660000000009176801540888845920562744140625,"lng":4.84012029999999970897306411643512547016143798828125},"viewport":{"northeast":{"lat":45.76029738029149740441425819881260395050048828125,"lng":4.841855130291502717909679631702601909637451171875},"southwest":{"lat":45.7575994197085123005308560095727443695068359375,"lng":4.8391571697084980741010440397076308727264404296875}}},"icon":"https:\/\/maps.gstatic.com\/mapfiles\/place_api\/icons\/v1\/png_71\/bar-71.png","icon_background_color":"#FF9E67","icon_mask_base_uri":"https:\/\/maps.gstatic.com\/mapfiles\/place_api\/icons\/v2\/bar_pinlet","name":"Barge, La Marquise","opening_hours":{"open_now":true},"photos":[{"height":4330,"html_attributions":["<a href=\"https:\/\/maps.google.com\/maps\/contrib\/114249368740020923729\">Mikko CHEN<\/a>"],"photo_reference":"AW30NDxK6M4n7PBEYNpaWAWYoQ4eC8-rEWX16HoNNRXaZqqNsJTL2YQK40oRMSA5-pGAr3_2X2cWk5Id5zD9mBsjYv5asWGO4j8AtjPTwsKpVJKjkuLk7zW6u2X72Vdy2zya0dRAflxe37KCDmI2fwDcuQguqTBJDydYmIZX1O8ipmmSQ7qR","width":5773}],"place_id":"ChIJ3X0PI1rq9EcR3cfk3kuxhns","plus_code":{"compound_code":"QR5R+H2 Lyon, France","global_code":"8FQ6QR5R+H2"},"price_level":2,"rating":3.5,"reference":"ChIJ3X0PI1rq9EcR3cfk3kuxhns","scope":"GOOGLE","types":["night_club","bar","point_of_interest","establishment"],"user_ratings_total":337,"vicinity":"P\u00e9niche La Marquise, 20 Quai Victor Augagneur, Lyon"},{"business_status":"OPERATIONAL","geometry":{"location":{"lat":45.76567200000000212867234949953854084014892578125,"lng":4.83195979999999991605363902635872364044189453125},"viewport":{"northeast":{"lat":45.76718708029149951244107796810567378997802734375,"lng":4.833289330291503205216940841637551784515380859375},"southwest":{"lat":45.7644891197085001977029605768620967864990234375,"lng":4.8305913697084985614083052496425807476043701171875}}},"icon":"https:\/\/maps.gstatic.com\/mapfiles\/place_api\/icons\/v1\/png_71\/bar-71.png","icon_background_color":"#FF9E67","icon_mask_base_uri":"https:\/\/maps.gstatic.com\/mapfiles\/place_api\/icons\/v2\/bar_pinlet","name":"Hot Club Lyon","opening_hours":{"open_now":false},"photos":[{"height":1025,"html_attributions":["<a href=\"https:\/\/maps.google.com\/maps\/contrib\/114254137774507136115\">Hot Club de Lyon<\/a>"],"photo_reference":"AW30NDz5GmFHYdUkXzGxOKvlpC0KP2ECyHBPbx63J-qs4DGANcE89pDdPWq_r_aLJi_spiJPRl-JdMMKVPzqOVSelUdRLKnoBDsqOqkMW785cTFBIlVFT9XcYvrHvSV3Szl3bSEXASDVublLMwisVmtaHOEXZL6xNuVPjfRwkFCCAeaiF2w0","width":1536}],"place_id":"ChIJAeBxpf_q9EcR-po7FfVWPWE","plus_code":{"compound_code":"QR8J+7Q Lyon, France","global_code":"8FQ6QR8J+7Q"},"price_level":1,"rating":4.5999999999999996447286321199499070644378662109375,"reference":"ChIJAeBxpf_q9EcR-po7FfVWPWE","scope":"GOOGLE","types":["night_club","bar","point_of_interest","establishment"],"user_ratings_total":224,"vicinity":"26 Rue Lanterne, Lyon"},{"business_status":"OPERATIONAL","geometry":{"location":{"lat":45.76081260000000128229658002965152263641357421875,"lng":4.83315659999999969187456372310407459735870361328125},"viewport":{"northeast":{"lat":45.7622003802915031656084465794265270233154296875,"lng":4.8345233302915016082579313660971820354461669921875},"southwest":{"lat":45.75950241970849674544297158718109130859375,"lng":4.83182536970849785262771547422744333744049072265625}}},"icon":"https:\/\/maps.gstatic.com\/mapfiles\/place_api\/icons\/v1\/png_71\/restaurant-71.png","icon_background_color":"#FF9E67","icon_mask_base_uri":"https:\/\/maps.gstatic.com\/mapfiles\/place_api\/icons\/v2\/restaurant_pinlet","name":"Le Coin Vert","opening_hours":{"open_now":true},"photos":[{"height":2976,"html_attributions":["<a href=\"https:\/\/maps.google.com\/maps\/contrib\/100284645837148400248\">Teresa De Vito<\/a>"],"photo_reference":"AW30NDyHSnqJufimCMJFdZFPlb_vS0I0eoUuY5kVs0ITv7rA3G2Im-GJceqtA-BVAICA2NirDKBELejgSziLTMVVGyppakSxuWH51bZ8jzpG-1iRy-pvUzChOOMHMXsTmlBmGyIq8s8tzALG2kj23jQpw9UOdRG5O5ykemK3wHF-NJDa0-hJ","width":3968}],"place_id":"ChIJx68uPFTq9EcRWCIN5MRtpzo","plus_code":{"compound_code":"QR6M+87 Lyon, France","global_code":"8FQ6QR6M+87"},"price_level":2,"rating":4.4000000000000003552713678800500929355621337890625,"reference":"ChIJx68uPFTq9EcRWCIN5MRtpzo","scope":"GOOGLE","types":["restaurant","bar","food","point_of_interest","establishment"],"user_ratings_total":7146,"vicinity":"Place des Jacobins, Lyon"},{"business_status":"OPERATIONAL","geometry":{"location":{"lat":45.7690993000000077017830335535109043121337890625,"lng":4.83626769999999961413550408906303346157073974609375},"viewport":{"northeast":{"lat":45.7704329802915026448317803442478179931640625,"lng":4.83756943029150132673521511605940759181976318359375},"southwest":{"lat":45.76773501970850333009366295300424098968505859375,"lng":4.8348714697084975711049992241896688938140869140625}}},"icon":"https:\/\/maps.gstatic.com\/mapfiles\/place_api\/icons\/v1\/png_71\/generic_business-71.png","icon_background_color":"#7B9EB0","icon_mask_base_uri":"https:\/\/maps.gstatic.com\/mapfiles\/place_api\/icons\/v2\/generic_pinlet","name":"Bar a champagne Lyon - Vertige Strip","opening_hours":{"open_now":false},"photos":[{"height":3360,"html_attributions":["<a href=\"https:\/\/maps.google.com\/maps\/contrib\/108195607617971026596\">Bar a champagne Lyon - Vertige Strip<\/a>"],"photo_reference":"AW30NDxtAjMlgtSE_eHy6AQmIwPt3HF__fWMtRHdW-Ufk-A4tNdM1sKradUvH2UPpvBvZf3PndsqqtxPYVVnkvhGhDeQ4GxIT_SHgOiIFJxoW3NTWmio-yW-Tqosap6GVPyNAcsq2UO98-BYCQLko2sma4Bdy0GhwddoibT5HpAyw2LRpJ_8","width":6720}],"place_id":"ChIJf-cD-_vq9EcR8ZVYX31CscY","plus_code":{"compound_code":"QR9P+JG Lyon, France","global_code":"8FQ6QR9P+JG"},"rating":4.0999999999999996447286321199499070644378662109375,"reference":"ChIJf-cD-_vq9EcR8ZVYX31CscY","scope":"GOOGLE","types":["bar","point_of_interest","establishment"],"user_ratings_total":34,"vicinity":"5 Rue du Griffon, Lyon"},{"business_status":"OPERATIONAL","geometry":{"location":{"lat":45.7668541999999973768353811465203762054443359375,"lng":4.8369485000000000951558831729926168918609619140625},"viewport":{"northeast":{"lat":45.7681913302914864516424131579697132110595703125,"lng":4.83823978029150314483786132768727838993072509765625},"southwest":{"lat":45.76549336970848713690429576672613620758056640625,"lng":4.835541819708499389207645435817539691925048828125}}},"icon":"https:\/\/maps.gstatic.com\/mapfiles\/place_api\/icons\/v1\/png_71\/restaurant-71.png","icon_background_color":"#FF9E67","icon_mask_base_uri":"https:\/\/maps.gstatic.com\/mapfiles\/place_api\/icons\/v2\/restaurant_pinlet","name":"Caf\u00e9 203","opening_hours":{"open_now":true},"photos":[{"height":2521,"html_attributions":["<a href=\"https:\/\/maps.google.com\/maps\/contrib\/114603177389948001104\">Caf\u00e9 203<\/a>"],"photo_reference":"AW30NDwm2juw27Squ0RaJPK_CtTNg0od9P1qRXn5MtruKsEg2heTXvmD45MFhZdYHM87BPzOsUAsNA4GwT0tweFk3XALlirEsfqH4eSbaKrKrXzyfPh2VzxwaxzJKF1D1tmqehN4eJrZ-IKfMn2zXprCi_L6GOcRpPkr7OoqsS5HFA484g5p","width":1876}],"place_id":"ChIJR6q7F_nq9EcR_yWwxBSPY2I","plus_code":{"compound_code":"QR8P+PQ Lyon, France","global_code":"8FQ6QR8P+PQ"},"price_level":2,"rating":3.899999999999999911182158029987476766109466552734375,"reference":"ChIJR6q7F_nq9EcR_yWwxBSPY2I","scope":"GOOGLE","types":["cafe","bar","restaurant","food","point_of_interest","establishment"],"user_ratings_total":1812,"vicinity":"9 Rue du Garet, Lyon"},{"business_status":"OPERATIONAL","geometry":{"location":{"lat":45.7660077000000029556758818216621875762939453125,"lng":4.83350179999999962632273309282027184963226318359375},"viewport":{"northeast":{"lat":45.76737713029150000920708407647907733917236328125,"lng":4.834844880291502278168991324491798877716064453125},"southwest":{"lat":45.764679169708500694468966685235500335693359375,"lng":4.8321469197084976343603557324968278408050537109375}}},"icon":"https:\/\/maps.gstatic.com\/mapfiles\/place_api\/icons\/v1\/png_71\/restaurant-71.png","icon_background_color":"#FF9E67","icon_mask_base_uri":"https:\/\/maps.gstatic.com\/mapfiles\/place_api\/icons\/v2\/restaurant_pinlet","name":"L\u00e9on de Lyon Restaurant Gastronomique","opening_hours":{"open_now":false},"photos":[{"height":1610,"html_attributions":["<a href=\"https:\/\/maps.google.com\/maps\/contrib\/103974507920545672107\">L\u00e9on de Lyon Restaurant Gastronomique<\/a>"],"photo_reference":"AW30NDyaxru4h82gk5OVioydJuU09_rZDQQo7BfHJxgcT2aO3Uv98FjdNe5OgzdOZsAyTMK0nsVnxWns0DBpIMi-EFSJ3Xs11BoYZ0BffBSkJyI_o-8oFwSFHhz3Ibdmfgjkp2V4fczIiazv_lz8_7BpXQ-_SvD5aOg63HhVi5ookRmctJoK","width":2800}],"place_id":"ChIJvfKPG__q9EcRGGC8iJIFUcs","plus_code":{"compound_code":"QR8M+CC Lyon, France","global_code":"8FQ6QR8M+CC"},"price_level":3,"rating":4.20000000000000017763568394002504646778106689453125,"reference":"ChIJvfKPG__q9EcRGGC8iJIFUcs","scope":"GOOGLE","types":["bar","restaurant","food","point_of_interest","establishment"],"user_ratings_total":871,"vicinity":"1 Rue Pleney, Lyon"},{"business_status":"OPERATIONAL","geometry":{"location":{"lat":45.76673149999999878900780458934605121612548828125,"lng":4.8544985000000000496811480843462049961090087890625},"viewport":{"northeast":{"lat":45.7681091802914892241460620425641536712646484375,"lng":4.85594428029150204650932209915481507778167724609375},"southwest":{"lat":45.76541121970848990940794465132057666778564453125,"lng":4.8532463197084982908791062072850763797760009765625}}},"icon":"https:\/\/maps.gstatic.com\/mapfiles\/place_api\/icons\/v1\/png_71\/restaurant-71.png","icon_background_color":"#FF9E67","icon_mask_base_uri":"https:\/\/maps.gstatic.com\/mapfiles\/place_api\/icons\/v2\/restaurant_pinlet","name":"Le Pain de Sucre","opening_hours":{"open_now":false},"photos":[{"height":721,"html_attributions":["<a href=\"https:\/\/maps.google.com\/maps\/contrib\/107938913159433242967\">Le Pain de Sucre<\/a>"],"photo_reference":"AW30NDyeC749g3syDVRfMaqPlCGauZHtn12cesKt2cwWEhS-Q4jMDuUPyTD2p7a7mAiO-LZg7aRo_L41z3_LVucRrUmCe82mGZ-uezRIwgS4JiKfj2sq60jDfbxDdoYih0t2WtWeFKs9JQnP2pk4VHuvTrK7dngKVqcELbPR897UhUtgrcir","width":1280}],"place_id":"ChIJK3wAmYvq9EcReV7Q-XjiBNE","plus_code":{"compound_code":"QV83+MQ Lyon, France","global_code":"8FQ6QV83+MQ"},"price_level":2,"rating":4.29999999999999982236431605997495353221893310546875,"reference":"ChIJK3wAmYvq9EcReV7Q-XjiBNE","scope":"GOOGLE","types":["meal_takeaway","bar","restaurant","food","point_of_interest","establishment"],"user_ratings_total":566,"vicinity":"82 Rue Mass\u00e9na, Lyon"},{"business_status":"OPERATIONAL","geometry":{"location":{"lat":45.76665100000000308000380755402147769927978515625,"lng":4.85583599999999915297621555509977042675018310546875},"viewport":{"northeast":{"lat":45.767995780291499841041513718664646148681640625,"lng":4.857134730291502222598865046165883541107177734375},"southwest":{"lat":45.76529781970850052630339632742106914520263671875,"lng":4.8544367697084975787902294541709125041961669921875}}},"icon":"https:\/\/maps.gstatic.com\/mapfiles\/place_api\/icons\/v1\/png_71\/restaurant-71.png","icon_background_color":"#FF9E67","icon_mask_base_uri":"https:\/\/maps.gstatic.com\/mapfiles\/place_api\/icons\/v2\/restaurant_pinlet","name":"Yzumi","opening_hours":{"open_now":true},"photos":[{"height":3744,"html_attributions":["<a href=\"https:\/\/maps.google.com\/maps\/contrib\/117591394883419967044\">Yzumi<\/a>"],"photo_reference":"AW30NDxvdZVvBvC2Nqntvtd_gZ7ZLugyZLIQHE4ig61H4Ljccy9PAfY4Q0zssAclER1adadpiZkC7p-2_FkhB8fhrDH8mDZ0PrFf3qQBSQBXDGgtWWnHJ0RGM5Wgx1LMT3eo2tQc2zgQEBtR6bV-3h09AK11uU1pFMlg8T5af8HK5gJYeU1r","width":5616}],"place_id":"ChIJ4Wz26Yvq9EcRbeJhnRSK_K8","plus_code":{"compound_code":"QV84+M8 Lyon, France","global_code":"8FQ6QV84+M8"},"price_level":2,"rating":4.29999999999999982236431605997495353221893310546875,"reference":"ChIJ4Wz26Yvq9EcRbeJhnRSK_K8","scope":"GOOGLE","types":["bar","restaurant","food","point_of_interest","establishment"],"user_ratings_total":502,"vicinity":"71 Rue Ney, Lyon"},{"business_status":"OPERATIONAL","geometry":{"location":{"lat":45.76170900000000330010152538307011127471923828125,"lng":4.832346199999999925012161838822066783905029296875},"viewport":{"northeast":{"lat":45.76280743029150244183256290853023529052734375,"lng":4.833446280291500585235553444363176822662353515625},"southwest":{"lat":45.76010946970850312709444551728665828704833984375,"lng":4.83074831970849682960533755249343812465667724609375}}},"icon":"https:\/\/maps.gstatic.com\/mapfiles\/place_api\/icons\/v1\/png_71\/restaurant-71.png","icon_background_color":"#FF9E67","icon_mask_base_uri":"https:\/\/maps.gstatic.com\/mapfiles\/place_api\/icons\/v2\/restaurant_pinlet","name":"Caf\u00e9 L\u00e9one","opening_hours":{"open_now":false},"photos":[{"height":2250,"html_attributions":["<a href=\"https:\/\/maps.google.com\/maps\/contrib\/116593580791046639670\">Adam Witkowski<\/a>"],"photo_reference":"AW30NDw18mgp9JYzQNYC8zcRCzmd0luT1UYqkhKxXnoXjIfBIrIRAk_z0FuY43KAHvj86VR_aDLbqKm4IiQK18jDnzJwVXUPJNeK43DV9V8zuVP2gngxvJiIfXqRnNrvP4mil1kDWQQyEWSUlR5pXecr7ufAGj01Bt6EVrf-o7mT-50vHhUz","width":4000}],"place_id":"ChIJC8qErVXq9EcRIwUqUONq1Cg","plus_code":{"compound_code":"QR6J+MW Lyon, France","global_code":"8FQ6QR6J+MW"},"price_level":2,"rating":3.899999999999999911182158029987476766109466552734375,"reference":"ChIJC8qErVXq9EcRIwUqUONq1Cg","scope":"GOOGLE","types":["bar","restaurant","food","point_of_interest","establishment"],"user_ratings_total":316,"vicinity":"8 Rue de la Monnaie, Lyon"},{"business_status":"OPERATIONAL","geometry":{"location":{"lat":45.76291909999999774072421132586896419525146484375,"lng":4.83297650000000000858335624798201024532318115234375},"viewport":{"northeast":{"lat":45.76423548029149657168090925551950931549072265625,"lng":4.8344922302915023237801506184041500091552734375},"southwest":{"lat":45.76153751970849725694279186427593231201171875,"lng":4.8317942697084976799715150264091789722442626953125}}},"icon":"https:\/\/maps.gstatic.com\/mapfiles\/place_api\/icons\/v1\/png_71\/restaurant-71.png","icon_background_color":"#FF9E67","icon_mask_base_uri":"https:\/\/maps.gstatic.com\/mapfiles\/place_api\/icons\/v2\/restaurant_pinlet","name":"Plein Sud","opening_hours":{"open_now":false},"photos":[{"height":2957,"html_attributions":["<a href=\"https:\/\/maps.google.com\/maps\/contrib\/102599208090113813567\">Plein Sud<\/a>"],"photo_reference":"AW30NDxAO_hsFjD8wluOoxtQej4cm_AM0TtqHzkLKCRDstPZtSuc2bwIWmljZJkG1QR1U266OoRce44p2iQ7Wjqlu2tK73hLjy3rekc-Ry27CVM-BddMiqSqkQMHyA5L16lpttoNYyNm3bDlZ6dnbxfRH-FkGHKS7yDrAVcJvQIS3wwpEIUr","width":2957}],"place_id":"ChIJw1BxllXq9EcRBUMrh9wAlwU","plus_code":{"compound_code":"QR7M+55 Lyon, France","global_code":"8FQ6QR7M+55"},"price_level":2,"rating":4.4000000000000003552713678800500929355621337890625,"reference":"ChIJw1BxllXq9EcRBUMrh9wAlwU","scope":"GOOGLE","types":["restaurant","bar","food","point_of_interest","establishment"],"user_ratings_total":143,"vicinity":"3 Rue Tupin, Lyon"},{"business_status":"OPERATIONAL","geometry":{"location":{"lat":45.76328860000000275931597570888698101043701171875,"lng":4.83452310000000107237383417668752372264862060546875},"viewport":{"northeast":{"lat":45.76468013029150228021535440348088741302490234375,"lng":4.8358121802915032816372331581078469753265380859375},"southwest":{"lat":45.7619821697085029654772370122373104095458984375,"lng":4.83311421970849863782859756611287593841552734375}}},"icon":"https:\/\/maps.gstatic.com\/mapfiles\/place_api\/icons\/v1\/png_71\/restaurant-71.png","icon_background_color":"#FF9E67","icon_mask_base_uri":"https:\/\/maps.gstatic.com\/mapfiles\/place_api\/icons\/v2\/restaurant_pinlet","name":"Le Grand Caf\u00e9 des N\u00e9gociants","opening_hours":{"open_now":true},"photos":[{"height":2736,"html_attributions":["<a href=\"https:\/\/maps.google.com\/maps\/contrib\/103519051769510472216\">valerie coffy<\/a>"],"photo_reference":"AW30NDx_7M3oK-v3hNkN8n_sGW_6NvjSpjaWCBqzABa1yuflqa1vYK43FvnvGOAVCeWZCRMLIylnIZ7aiiJo2VX0F9Jss6Qw9nOCt9JxT0oAckthhGzPuuj02YlEixD1zFIsfXbr1_kIsQRdjml8v1rPUwN-84uwlFImZN6wuP_9hdLOB1Wu","width":3648}],"place_id":"ChIJXVyu5FXq9EcRFejRBgQRyDc","plus_code":{"compound_code":"QR7M+8R Lyon, France","global_code":"8FQ6QR7M+8R"},"price_level":3,"rating":3.79999999999999982236431605997495353221893310546875,"reference":"ChIJXVyu5FXq9EcRFejRBgQRyDc","scope":"GOOGLE","types":["cafe","bar","restaurant","food","point_of_interest","establishment"],"user_ratings_total":2745,"vicinity":"1 Place Francisque R\u00e9gaud, Lyon"},{"business_status":"OPERATIONAL","geometry":{"location":{"lat":45.76930029999999760548234917223453521728515625,"lng":4.83542280000000079809296948951669037342071533203125},"viewport":{"northeast":{"lat":45.7706515302915022402885369956493377685546875,"lng":4.83676813029150221012741894810460507869720458984375},"southwest":{"lat":45.76795356970850292555041960440576076507568359375,"lng":4.83407016970849756631878335610963404178619384765625}}},"icon":"https:\/\/maps.gstatic.com\/mapfiles\/place_api\/icons\/v1\/png_71\/bar-71.png","icon_background_color":"#FF9E67","icon_mask_base_uri":"https:\/\/maps.gstatic.com\/mapfiles\/place_api\/icons\/v2\/bar_pinlet","name":"Le Trou","opening_hours":{"open_now":true},"photos":[{"height":3024,"html_attributions":["<a href=\"https:\/\/maps.google.com\/maps\/contrib\/101640609063575719811\">Le Trou<\/a>"],"photo_reference":"AW30NDyf_UAgJCam7jRHcvUDtF2eC21sVj1iPbjCByoJq0fnyyU-SDydS7CwnQ5Y4AMvDr1VCGQrevNvzIn2YwAAi7ng0o0fZG_iTOeQ2ttKTFk6HkuWsH-Y72dmdwfUutPWltLIVOI9ha511MFB9yCaclpNHamzyo7xV88Va5c_oVlJpqy-","width":4032}],"place_id":"ChIJz7oNBfzq9EcRHVmXT6E9W0M","plus_code":{"compound_code":"QR9P+P5 Lyon, France","global_code":"8FQ6QR9P+P5"},"price_level":1,"rating":3.79999999999999982236431605997495353221893310546875,"reference":"ChIJz7oNBfzq9EcRHVmXT6E9W0M","scope":"GOOGLE","types":["bar","point_of_interest","establishment"],"user_ratings_total":74,"vicinity":"6 Rue Romarin, Lyon"},{"business_status":"OPERATIONAL","geometry":{"location":{"lat":45.76197499999999962483343551866710186004638671875,"lng":4.83289759999999990469632393796928226947784423828125},"viewport":{"northeast":{"lat":45.7633439302914979407432838343083858489990234375,"lng":4.83446048029150343694482216960750520229339599609375},"southwest":{"lat":45.76064596970849862600516644306480884552001953125,"lng":4.83176251970849879313618657761253416538238525390625}}},"icon":"https:\/\/maps.gstatic.com\/mapfiles\/place_api\/icons\/v1\/png_71\/restaurant-71.png","icon_background_color":"#FF9E67","icon_mask_base_uri":"https:\/\/maps.gstatic.com\/mapfiles\/place_api\/icons\/v2\/restaurant_pinlet","name":"Eden Rock Caf\u00e9","opening_hours":{"open_now":true},"photos":[{"height":780,"html_attributions":["<a href=\"https:\/\/maps.google.com\/maps\/contrib\/103306136489315854494\">Eden Rock Caf\u00e9<\/a>"],"photo_reference":"AW30NDw2aGyCvwxSi1mhUut6vLbyZ87CYBRbqOwc4JSBMK_VAtW9G3OEmJ8u2hWN6H26w6yLfW9asmHrrc3F35xzvR9HI0WH6Nymbv3-OZ_9b7a1hr-w3RFu3KVI23tyYc3umb3vbhDqybYCpNykCaexzlNITxWhOJ9QLSjLxSoPG275FNU","width":1303}],"place_id":"ChIJo6Yst1Xq9EcRqN-60uYj5QE","plus_code":{"compound_code":"QR6M+Q5 Lyon, France","global_code":"8FQ6QR6M+Q5"},"price_level":2,"rating":4,"reference":"ChIJo6Yst1Xq9EcRqN-60uYj5QE","scope":"GOOGLE","types":["restaurant","bar","food","point_of_interest","establishment"],"user_ratings_total":1245,"vicinity":"68 Rue Merci\u00e8re, Lyon"}]},{"type":"D","id":null,"name":null,"start":"12:00","end":"12:30","P\/S":null},{"type":"R","id":"bar","name":"Bar","start":"12:30","end":"13:30","P\/S":"P","candidates":[{"business_status":"OPERATIONAL","geometry":{"location":{"lat":45.7504293999999873676642891950905323028564453125,"lng":4.82591300000000078540551839978434145450592041015625},"viewport":{"northeast":{"lat":45.7517302302914998790583922527730464935302734375,"lng":4.8272922302915031167458437266759574413299560546875},"southwest":{"lat":45.74903226970850056432027486152946949005126953125,"lng":4.82459426970849758475878843455575406551361083984375}}},"icon":"https:\/\/maps.gstatic.com\/mapfiles\/place_api\/icons\/v1\/png_71\/lodging-71.png","icon_background_color":"#909CE1","icon_mask_base_uri":"https:\/\/maps.gstatic.com\/mapfiles\/place_api\/icons\/v2\/hotel_pinlet","name":"Inter-Hotel de la Loire","opening_hours":{"open_now":true},"photos":[{"height":4912,"html_attributions":["<a href=\"https:\/\/maps.google.com\/maps\/contrib\/111716541159650769910\">Hotelo Lyon Ainay Ex H\u00f4tel de la Loire<\/a>"],"photo_reference":"AW30NDz4jfTKOQwvnn5hnlitFBTAaN_k8JMfDz6eFdc7n0_tJD8xjcdXXFkD1tTDG-eE3Cmxxet_YaPd-lIpc-5-so5hZUIHOsh7BAvStQYxs1PzGK8nNNI9yRgTPdVIlHNvlD5MeMzDrQVYI6_p2i_tVPjj_hjxEnxccwa5ePIq3ixIHEu7","width":7360}],"place_id":"ChIJOwuKW7Pr9EcRKNdIv8l240E","plus_code":{"compound_code":"QR2G+59 Lyon, France","global_code":"8FQ6QR2G+59"},"rating":3.600000000000000088817841970012523233890533447265625,"reference":"ChIJOwuKW7Pr9EcRKNdIv8l240E","scope":"GOOGLE","types":["lodging","bar","point_of_interest","establishment"],"user_ratings_total":218,"vicinity":"19 Cours de Verdun Gensoul, Lyon"},{"business_status":"OPERATIONAL","geometry":{"location":{"lat":45.74807059999999836463757674209773540496826171875,"lng":4.828672499999999701003616792149841785430908203125},"viewport":{"northeast":{"lat":45.74948903029149249732654425315558910369873046875,"lng":4.8299254802915019268994001322425901889801025390625},"southwest":{"lat":45.7467910697084931825884268619120121002197265625,"lng":4.827227519708497283090764540247619152069091796875}}},"icon":"https:\/\/maps.gstatic.com\/mapfiles\/place_api\/icons\/v1\/png_71\/lodging-71.png","icon_background_color":"#909CE1","icon_mask_base_uri":"https:\/\/maps.gstatic.com\/mapfiles\/place_api\/icons\/v2\/hotel_pinlet","name":"Hotel Victoria","opening_hours":{"open_now":true},"photos":[{"height":3356,"html_attributions":["<a href=\"https:\/\/maps.google.com\/maps\/contrib\/106371763599570414001\">Hotel Victoria<\/a>"],"photo_reference":"AW30NDyD30rqaF-ez49qSFm7zSM4WlLJJA6FYD2f6jVtJqMarC5zB-LCmd_IremdepUTVDTfpjRhgjqGoASA_ozOXA5Ndz7woT2kT316ZRJbLNVv1KPPE9bdhyVA_dpoy9D6VxNTTdBPlc42GjaCuJ8s4I4pnFalaTRjjPTJ9ta62DVJE-iR","width":4812}],"place_id":"ChIJE0a5EEvq9EcRcJ9CWFGXgiM","plus_code":{"compound_code":"PRXH+6F Lyon, France","global_code":"8FQ6PRXH+6F"},"rating":3.79999999999999982236431605997495353221893310546875,"reference":"ChIJE0a5EEvq9EcRcJ9CWFGXgiM","scope":"GOOGLE","types":["night_club","lodging","bar","point_of_interest","establishment"],"user_ratings_total":795,"vicinity":"3 Rue Delandine, Lyon"},{"business_status":"OPERATIONAL","geometry":{"location":{"lat":45.76709960000000165791789186187088489532470703125,"lng":4.8450812000000009760469765751622617244720458984375},"viewport":{"northeast":{"lat":45.76845888029149733711165026761591434478759765625,"lng":4.8465379302915021497710768016986548900604248046875},"southwest":{"lat":45.76576091970849802237353287637233734130859375,"lng":4.84383996970849839414086090982891619205474853515625}}},"icon":"https:\/\/maps.gstatic.com\/mapfiles\/place_api\/icons\/v1\/png_71\/lodging-71.png","icon_background_color":"#909CE1","icon_mask_base_uri":"https:\/\/maps.gstatic.com\/mapfiles\/place_api\/icons\/v2\/hotel_pinlet","name":"H\u00f4tel Tagg\u00e2t","opening_hours":{"open_now":true},"photos":[{"height":3495,"html_attributions":["<a href=\"https:\/\/maps.google.com\/maps\/contrib\/109302006329157323059\">H\u00f4tel Tagg\u00e2t<\/a>"],"photo_reference":"AW30NDzn-eVmx20p1wcxBqL-0HGa5LZS_eBFMTsaBmJDFQPiX4FtCzDfWeVEdnWGXhO7mbkNNbCDxAyR9ujyEizjj_G_m6akZEevc8khTdAJ98RYuNRCD6AncLQ_prK88aRDMUQCmig65G4GxvlQvJ6DEAkVCE1Y18B6Ncf0KR33bTNC9u_B","width":5243}],"place_id":"ChIJj7oJvfbq9EcRU0N8KAF4JH8","plus_code":{"compound_code":"QR8W+R2 Lyon, France","global_code":"8FQ6QR8W+R2"},"rating":4,"reference":"ChIJj7oJvfbq9EcRU0N8KAF4JH8","scope":"GOOGLE","types":["lodging","bar","point_of_interest","establishment"],"user_ratings_total":278,"vicinity":"110 Rue Vend\u00f4me, Lyon"},{"business_status":"OPERATIONAL","geometry":{"location":{"lat":45.76083260000000763056959840469062328338623046875,"lng":4.8375889000000000805812305770814418792724609375},"viewport":{"northeast":{"lat":45.76226528029150131260394118726253509521484375,"lng":4.839005280291502231193589977920055389404296875},"southwest":{"lat":45.759567319708509103293181397020816802978515625,"lng":4.8363073197084975873849543859250843524932861328125}}},"icon":"https:\/\/maps.gstatic.com\/mapfiles\/place_api\/icons\/v1\/png_71\/lodging-71.png","icon_background_color":"#909CE1","icon_mask_base_uri":"https:\/\/maps.gstatic.com\/mapfiles\/place_api\/icons\/v2\/hotel_pinlet","name":"Boscolo Lyon Hotel & Spa","photos":[{"height":4766,"html_attributions":["<a href=\"https:\/\/maps.google.com\/maps\/contrib\/116437170016966779107\">Boscolo Lyon Hotel &amp; Spa<\/a>"],"photo_reference":"AW30NDyTRgjLsAyKw3JdnZEqE1VuKMz1icm-NFAWHstVESGC2o8Jqg27-1jCM3yAkaryIu5UgH8qBoDhdxsvNH0rweJtoSUeXyDLx-gnQ9cPqaiAIF_W72kksVVum9NY8QKZfHqPRzwyFcQFo8YvsbeQvY2Rvvy63XR50q7CYR0XQJK0sb6T","width":7174}],"place_id":"ChIJh9SOPDbr9EcRL1YsIQcBk80","plus_code":{"compound_code":"QR6Q+82 Lyon, France","global_code":"8FQ6QR6Q+82"},"rating":4.29999999999999982236431605997495353221893310546875,"reference":"ChIJh9SOPDbr9EcRL1YsIQcBk80","scope":"GOOGLE","types":["spa","lodging","bar","restaurant","point_of_interest","food","establishment"],"user_ratings_total":578,"vicinity":"11 Quai Jules Courmont, Lyon"},{"business_status":"OPERATIONAL","geometry":{"location":{"lat":45.7593001999999984263922669924795627593994140625,"lng":4.8359131000000008526740202796645462512969970703125},"viewport":{"northeast":{"lat":45.76065093029149721814974327571690082550048828125,"lng":4.83732528029150188331186654977500438690185546875},"southwest":{"lat":45.757952969708497903411625884473323822021484375,"lng":4.83462731970849812768165065790526568889617919921875}}},"icon":"https:\/\/maps.gstatic.com\/mapfiles\/place_api\/icons\/v1\/png_71\/generic_business-71.png","icon_background_color":"#7B9EB0","icon_mask_base_uri":"https:\/\/maps.gstatic.com\/mapfiles\/place_api\/icons\/v2\/generic_pinlet","name":"Brasserie Le R\u00e9publique","opening_hours":{"open_now":true},"photos":[{"height":3928,"html_attributions":["<a href=\"https:\/\/maps.google.com\/maps\/contrib\/107663370683555773711\">Brasserie Le R\u00e9publique<\/a>"],"photo_reference":"AW30NDw9INI6zsm98FoaiSL1cYEP4MmJjpnhp-hTRpAInxrJKdt2lBF3eb6Km7-8puDxFcDhLe8Y6yaCvqGzYDo_5MYjiHSElZKCJ2lfx9ybNuEkaBsTh9BbTXTlm2a11_z-pRgcWvDL3TG4kDvlYgd2A7rgmCxyWDi_it4NS3MkP0Olvg2N","width":9476}],"place_id":"ChIJiTqIzVbq9EcRXJNwQvy81GU","plus_code":{"compound_code":"QR5P+P9 Lyon, France","global_code":"8FQ6QR5P+P9"},"price_level":2,"rating":3.899999999999999911182158029987476766109466552734375,"reference":"ChIJiTqIzVbq9EcRXJNwQvy81GU","scope":"GOOGLE","types":["bar","restaurant","point_of_interest","food","establishment"],"user_ratings_total":1928,"vicinity":"Place de l'h\u00f4pital, 19 Rue Louis Paufique, Lyon"},{"business_status":"OPERATIONAL","geometry":{"location":{"lat":45.7663318000000032270691008307039737701416015625,"lng":4.83699010000000040321310734725557267665863037109375},"viewport":{"northeast":{"lat":45.7675791802914915251676575280725955963134765625,"lng":4.8382575802915024354433626285754144191741943359375},"southwest":{"lat":45.7648812197084993158568977378308773040771484375,"lng":4.83555961970849779163472703658044338226318359375}}},"icon":"https:\/\/maps.gstatic.com\/mapfiles\/place_api\/icons\/v1\/png_71\/bar-71.png","icon_background_color":"#FF9E67","icon_mask_base_uri":"https:\/\/maps.gstatic.com\/mapfiles\/place_api\/icons\/v2\/bar_pinlet","name":"L Bar food & drink","opening_hours":{"open_now":false},"photos":[{"height":454,"html_attributions":["<a href=\"https:\/\/maps.google.com\/maps\/contrib\/104096513705200382257\">L Bar food &amp; drink<\/a>"],"photo_reference":"AW30NDzzRRhfnvJrVwntUYGKroK7XidZjwGSA_DUwRb8vFsW5cXHbqneFul7dO3SZPnb5PBn2gf4PZfhz6vbYX2zrC8dY1xf_SUv901tGDC5tbAZTTJTQDFW2uQKi2OnTGXyMGrKepWtE_s8dGOm14P71e8AW2IUkpO-nkzHxBPCFZq2gDWm","width":806}],"place_id":"ChIJF8T3Hvnq9EcRusr5rzShjwc","plus_code":{"compound_code":"QR8P+GQ Lyon, France","global_code":"8FQ6QR8P+GQ"},"price_level":2,"rating":4.79999999999999982236431605997495353221893310546875,"reference":"ChIJF8T3Hvnq9EcRusr5rzShjwc","scope":"GOOGLE","types":["bar","restaurant","point_of_interest","food","establishment"],"user_ratings_total":2904,"vicinity":"19 Rue du Garet, Lyon"},{"business_status":"OPERATIONAL","geometry":{"location":{"lat":45.74974999999999880628820392303168773651123046875,"lng":4.8439148999999996902943166787736117839813232421875},"viewport":{"northeast":{"lat":45.75107113029149985550247947685420513153076171875,"lng":4.845310780291502084082821966148912906646728515625},"southwest":{"lat":45.7483731697085005407643620856106281280517578125,"lng":4.8426128197084974402741863741539418697357177734375}}},"icon":"https:\/\/maps.gstatic.com\/mapfiles\/place_api\/icons\/v1\/png_71\/restaurant-71.png","icon_background_color":"#FF9E67","icon_mask_base_uri":"https:\/\/maps.gstatic.com\/mapfiles\/place_api\/icons\/v2\/restaurant_pinlet","name":"Vieille Canaille","opening_hours":{"open_now":false},"photos":[{"height":750,"html_attributions":["<a href=\"https:\/\/maps.google.com\/maps\/contrib\/108520149012405958268\">Vieille Canaille<\/a>"],"photo_reference":"AW30NDyMhnDZdkkV2hRt8V94BAfVd9y7vKBzlP00Ocz0zc-BFlXK3Sc8aR5arEGig-Oq87TcNqW_kUp8HAjTkyfRF_YhP0zZgniXfbqQOKwLFOIoMEddeZm1A7TkfF_IebX_P2K_K8-efqfioKb4NIn7NTZdbpAVJqijWilmvQrX4ybgS1Ja","width":750}],"place_id":"ChIJbUqy5UPq9EcR4JjWxiRQKpc","plus_code":{"compound_code":"PRXV+WH Lyon, France","global_code":"8FQ6PRXV+WH"},"price_level":2,"rating":4.5999999999999996447286321199499070644378662109375,"reference":"ChIJbUqy5UPq9EcR4JjWxiRQKpc","scope":"GOOGLE","types":["bar","restaurant","point_of_interest","food","establishment"],"user_ratings_total":722,"vicinity":"14 Rue Saint-J\u00e9r\u00f4me, Lyon"},{"business_status":"OPERATIONAL","geometry":{"location":{"lat":45.7589660000000009176801540888845920562744140625,"lng":4.84012029999999970897306411643512547016143798828125},"viewport":{"northeast":{"lat":45.76029738029149740441425819881260395050048828125,"lng":4.841855130291502717909679631702601909637451171875},"southwest":{"lat":45.7575994197085123005308560095727443695068359375,"lng":4.8391571697084980741010440397076308727264404296875}}},"icon":"https:\/\/maps.gstatic.com\/mapfiles\/place_api\/icons\/v1\/png_71\/bar-71.png","icon_background_color":"#FF9E67","icon_mask_base_uri":"https:\/\/maps.gstatic.com\/mapfiles\/place_api\/icons\/v2\/bar_pinlet","name":"Barge, La Marquise","opening_hours":{"open_now":true},"photos":[{"height":4330,"html_attributions":["<a href=\"https:\/\/maps.google.com\/maps\/contrib\/114249368740020923729\">Mikko CHEN<\/a>"],"photo_reference":"AW30NDzhL7kyPsBZ2h8zmfUqS29ethM2PkCRBHE8nvZafEZMXOIYlKBS-M7sVlKZl10Ho6S5CYjGocPiufMixcmLjmpN4XrENCOdDcdQiCxO-5Kpy85PF567SmqzTbSsE1mzHt6gfWeYZ5dEx4UpFNNVRgfE1s01nQc6uf1YoUhl2UTj_dzj","width":5773}],"place_id":"ChIJ3X0PI1rq9EcR3cfk3kuxhns","plus_code":{"compound_code":"QR5R+H2 Lyon, France","global_code":"8FQ6QR5R+H2"},"price_level":2,"rating":3.5,"reference":"ChIJ3X0PI1rq9EcR3cfk3kuxhns","scope":"GOOGLE","types":["night_club","bar","point_of_interest","establishment"],"user_ratings_total":337,"vicinity":"P\u00e9niche La Marquise, 20 Quai Victor Augagneur, Lyon"},{"business_status":"OPERATIONAL","geometry":{"location":{"lat":45.76567200000000212867234949953854084014892578125,"lng":4.83195979999999991605363902635872364044189453125},"viewport":{"northeast":{"lat":45.76718708029149951244107796810567378997802734375,"lng":4.833289330291503205216940841637551784515380859375},"southwest":{"lat":45.7644891197085001977029605768620967864990234375,"lng":4.8305913697084985614083052496425807476043701171875}}},"icon":"https:\/\/maps.gstatic.com\/mapfiles\/place_api\/icons\/v1\/png_71\/bar-71.png","icon_background_color":"#FF9E67","icon_mask_base_uri":"https:\/\/maps.gstatic.com\/mapfiles\/place_api\/icons\/v2\/bar_pinlet","name":"Hot Club Lyon","opening_hours":{"open_now":false},"photos":[{"height":1025,"html_attributions":["<a href=\"https:\/\/maps.google.com\/maps\/contrib\/114254137774507136115\">Hot Club de Lyon<\/a>"],"photo_reference":"AW30NDykiym-92DJn_ZaFi8bNl7CfRjHOGDnfFCpsR_e9DD54C8d05vzBDk7db67497AXKnT6-h2qnSkuCGFDlNeMItnMVIL9fttTJ5ISaYGVAGQjhBMPqcQeoYS4EF1Wb9-pMCjLO5FTNn1TB5fhwZMhfMt-8JZCsUJ8dT6PQLDIOxVidrn","width":1536}],"place_id":"ChIJAeBxpf_q9EcR-po7FfVWPWE","plus_code":{"compound_code":"QR8J+7Q Lyon, France","global_code":"8FQ6QR8J+7Q"},"price_level":1,"rating":4.5999999999999996447286321199499070644378662109375,"reference":"ChIJAeBxpf_q9EcR-po7FfVWPWE","scope":"GOOGLE","types":["night_club","bar","point_of_interest","establishment"],"user_ratings_total":224,"vicinity":"26 Rue Lanterne, Lyon"},{"business_status":"OPERATIONAL","geometry":{"location":{"lat":45.76081260000000128229658002965152263641357421875,"lng":4.83315659999999969187456372310407459735870361328125},"viewport":{"northeast":{"lat":45.7622003802915031656084465794265270233154296875,"lng":4.8345233302915016082579313660971820354461669921875},"southwest":{"lat":45.75950241970849674544297158718109130859375,"lng":4.83182536970849785262771547422744333744049072265625}}},"icon":"https:\/\/maps.gstatic.com\/mapfiles\/place_api\/icons\/v1\/png_71\/restaurant-71.png","icon_background_color":"#FF9E67","icon_mask_base_uri":"https:\/\/maps.gstatic.com\/mapfiles\/place_api\/icons\/v2\/restaurant_pinlet","name":"Le Coin Vert","opening_hours":{"open_now":true},"photos":[{"height":2976,"html_attributions":["<a href=\"https:\/\/maps.google.com\/maps\/contrib\/100284645837148400248\">Teresa De Vito<\/a>"],"photo_reference":"AW30NDyUk4Cpcd8puBSi1r63uOfw2YPaj8YcBCVEykj5ZbbSypshOnOARRyAZtzMI7DScxppUo6b-iV-QnxLNgIVY0wBOnx7PHdcWfOWOIjXL-AwG6pWwyIm6A-e3MX5hb0v_UHdTaLtSpya1QPHvGYywUP0IdVLzsc0EhrDPmNGyF09FSLK","width":3968}],"place_id":"ChIJx68uPFTq9EcRWCIN5MRtpzo","plus_code":{"compound_code":"QR6M+87 Lyon, France","global_code":"8FQ6QR6M+87"},"price_level":2,"rating":4.4000000000000003552713678800500929355621337890625,"reference":"ChIJx68uPFTq9EcRWCIN5MRtpzo","scope":"GOOGLE","types":["restaurant","bar","point_of_interest","food","establishment"],"user_ratings_total":7146,"vicinity":"Place des Jacobins, Lyon"},{"business_status":"OPERATIONAL","geometry":{"location":{"lat":45.7690993000000077017830335535109043121337890625,"lng":4.83626769999999961413550408906303346157073974609375},"viewport":{"northeast":{"lat":45.7704329802915026448317803442478179931640625,"lng":4.83756943029150132673521511605940759181976318359375},"southwest":{"lat":45.76773501970850333009366295300424098968505859375,"lng":4.8348714697084975711049992241896688938140869140625}}},"icon":"https:\/\/maps.gstatic.com\/mapfiles\/place_api\/icons\/v1\/png_71\/generic_business-71.png","icon_background_color":"#7B9EB0","icon_mask_base_uri":"https:\/\/maps.gstatic.com\/mapfiles\/place_api\/icons\/v2\/generic_pinlet","name":"Bar a champagne Lyon - Vertige Strip","opening_hours":{"open_now":false},"photos":[{"height":3360,"html_attributions":["<a href=\"https:\/\/maps.google.com\/maps\/contrib\/108195607617971026596\">Bar a champagne Lyon - Vertige Strip<\/a>"],"photo_reference":"AW30NDxtlQfzV1DPi1y_Dj55T7WWzHxV5TQyy0b5ImTt0qcus4CFHyTGiEY0esUozUfenI4ZDCcBHVwnOcXqy03JOmZD12DJhY8l4Xn4TSiUR6I2S5lCYPScPi3Cv50fGm3zZQLYlqJoOPEh_jT7iE40KaxNYDfs6MM4RCadpQ7OEW21mJi0","width":6720}],"place_id":"ChIJf-cD-_vq9EcR8ZVYX31CscY","plus_code":{"compound_code":"QR9P+JG Lyon, France","global_code":"8FQ6QR9P+JG"},"rating":4.0999999999999996447286321199499070644378662109375,"reference":"ChIJf-cD-_vq9EcR8ZVYX31CscY","scope":"GOOGLE","types":["bar","point_of_interest","establishment"],"user_ratings_total":34,"vicinity":"5 Rue du Griffon, Lyon"},{"business_status":"OPERATIONAL","geometry":{"location":{"lat":45.7668541999999973768353811465203762054443359375,"lng":4.8369485000000000951558831729926168918609619140625},"viewport":{"northeast":{"lat":45.7681913302914864516424131579697132110595703125,"lng":4.83823978029150314483786132768727838993072509765625},"southwest":{"lat":45.76549336970848713690429576672613620758056640625,"lng":4.835541819708499389207645435817539691925048828125}}},"icon":"https:\/\/maps.gstatic.com\/mapfiles\/place_api\/icons\/v1\/png_71\/restaurant-71.png","icon_background_color":"#FF9E67","icon_mask_base_uri":"https:\/\/maps.gstatic.com\/mapfiles\/place_api\/icons\/v2\/restaurant_pinlet","name":"Caf\u00e9 203","opening_hours":{"open_now":true},"photos":[{"height":2521,"html_attributions":["<a href=\"https:\/\/maps.google.com\/maps\/contrib\/114603177389948001104\">Caf\u00e9 203<\/a>"],"photo_reference":"AW30NDwNHLshWfk-R4rzw9F8zTfS9e8N_FJSdryVtCYLXaBd9kSatoIxetr2YsEpMUz2SsvTgUR6iatBooMoUuFmSxNzsNghp2OKPhey6WiiZtegdH3kqyHpapdMXbbY9q2o3y0nsD0e6K1GvKAN5mRUoGveKm6s7xhqU-fAG6u8aVIVgr65","width":1876}],"place_id":"ChIJR6q7F_nq9EcR_yWwxBSPY2I","plus_code":{"compound_code":"QR8P+PQ Lyon, France","global_code":"8FQ6QR8P+PQ"},"price_level":2,"rating":3.899999999999999911182158029987476766109466552734375,"reference":"ChIJR6q7F_nq9EcR_yWwxBSPY2I","scope":"GOOGLE","types":["bar","cafe","restaurant","point_of_interest","food","establishment"],"user_ratings_total":1812,"vicinity":"9 Rue du Garet, Lyon"},{"business_status":"OPERATIONAL","geometry":{"location":{"lat":45.7660077000000029556758818216621875762939453125,"lng":4.83350179999999962632273309282027184963226318359375},"viewport":{"northeast":{"lat":45.76737713029150000920708407647907733917236328125,"lng":4.834844880291502278168991324491798877716064453125},"southwest":{"lat":45.764679169708500694468966685235500335693359375,"lng":4.8321469197084976343603557324968278408050537109375}}},"icon":"https:\/\/maps.gstatic.com\/mapfiles\/place_api\/icons\/v1\/png_71\/restaurant-71.png","icon_background_color":"#FF9E67","icon_mask_base_uri":"https:\/\/maps.gstatic.com\/mapfiles\/place_api\/icons\/v2\/restaurant_pinlet","name":"L\u00e9on de Lyon Restaurant Gastronomique","opening_hours":{"open_now":false},"photos":[{"height":1610,"html_attributions":["<a href=\"https:\/\/maps.google.com\/maps\/contrib\/103974507920545672107\">L\u00e9on de Lyon Restaurant Gastronomique<\/a>"],"photo_reference":"AW30NDyj0mM1e0L36FpW4VBAZv4Fe3_76c9jzJolzEF-roJnr0CJpzQ5IsZfXlRmFeh8qYtJ1F-JPdycx8gd0tJNtB_SR0TLoJFXyDGjSDSOZNmbtMiTJH_nILrPEctBmFWybXSKzp7ahrZeQzr9fxse9cGlNd06sacaVLG0ugcKiBIv8d_E","width":2800}],"place_id":"ChIJvfKPG__q9EcRGGC8iJIFUcs","plus_code":{"compound_code":"QR8M+CC Lyon, France","global_code":"8FQ6QR8M+CC"},"price_level":3,"rating":4.20000000000000017763568394002504646778106689453125,"reference":"ChIJvfKPG__q9EcRGGC8iJIFUcs","scope":"GOOGLE","types":["bar","restaurant","point_of_interest","food","establishment"],"user_ratings_total":871,"vicinity":"1 Rue Pleney, Lyon"},{"business_status":"OPERATIONAL","geometry":{"location":{"lat":45.76673149999999878900780458934605121612548828125,"lng":4.8544985000000000496811480843462049961090087890625},"viewport":{"northeast":{"lat":45.7681091802914892241460620425641536712646484375,"lng":4.85594428029150204650932209915481507778167724609375},"southwest":{"lat":45.76541121970848990940794465132057666778564453125,"lng":4.8532463197084982908791062072850763797760009765625}}},"icon":"https:\/\/maps.gstatic.com\/mapfiles\/place_api\/icons\/v1\/png_71\/restaurant-71.png","icon_background_color":"#FF9E67","icon_mask_base_uri":"https:\/\/maps.gstatic.com\/mapfiles\/place_api\/icons\/v2\/restaurant_pinlet","name":"Le Pain de Sucre","opening_hours":{"open_now":false},"photos":[{"height":721,"html_attributions":["<a href=\"https:\/\/maps.google.com\/maps\/contrib\/107938913159433242967\">Le Pain de Sucre<\/a>"],"photo_reference":"AW30NDyBM1vGADKT7b1rIKGpkps0ILsY7PPFzYUQy5NWppjMZur2-DGe_ye8TRSstgDItDzkT__Z0kE9Qx9H-V5XeEtqwsC4nU8GIbbVUuAD4KzUjvnFuY2m0Ijr7nJaiZApAURDUBvz6MBTomuz0d2BUFAo6i45FQMFWv6SHJlraJVTm7Qr","width":1280}],"place_id":"ChIJK3wAmYvq9EcReV7Q-XjiBNE","plus_code":{"compound_code":"QV83+MQ Lyon, France","global_code":"8FQ6QV83+MQ"},"price_level":2,"rating":4.29999999999999982236431605997495353221893310546875,"reference":"ChIJK3wAmYvq9EcReV7Q-XjiBNE","scope":"GOOGLE","types":["meal_takeaway","bar","restaurant","point_of_interest","food","establishment"],"user_ratings_total":566,"vicinity":"82 Rue Mass\u00e9na, Lyon"},{"business_status":"OPERATIONAL","geometry":{"location":{"lat":45.76665100000000308000380755402147769927978515625,"lng":4.85583599999999915297621555509977042675018310546875},"viewport":{"northeast":{"lat":45.767995780291499841041513718664646148681640625,"lng":4.857134730291502222598865046165883541107177734375},"southwest":{"lat":45.76529781970850052630339632742106914520263671875,"lng":4.8544367697084975787902294541709125041961669921875}}},"icon":"https:\/\/maps.gstatic.com\/mapfiles\/place_api\/icons\/v1\/png_71\/restaurant-71.png","icon_background_color":"#FF9E67","icon_mask_base_uri":"https:\/\/maps.gstatic.com\/mapfiles\/place_api\/icons\/v2\/restaurant_pinlet","name":"Yzumi","opening_hours":{"open_now":true},"photos":[{"height":3744,"html_attributions":["<a href=\"https:\/\/maps.google.com\/maps\/contrib\/117591394883419967044\">Yzumi<\/a>"],"photo_reference":"AW30NDzeXWkxvb-CS0lbrWd1vEqeTCDrkFSMrIld_IWymPREooxMoBN1ZK5ccpJ5SU1HWun4IbAJ4VPdL0BF96huV_TW8C8XGLaGNsDtRrVeg-dSX1zfUgRkCWR65wzpOXoWv3Nc88cyVk6QYUI2N0q3MDHYPR1lcVSL8lbPprTKqGSfYdq1","width":5616}],"place_id":"ChIJ4Wz26Yvq9EcRbeJhnRSK_K8","plus_code":{"compound_code":"QV84+M8 Lyon, France","global_code":"8FQ6QV84+M8"},"price_level":2,"rating":4.29999999999999982236431605997495353221893310546875,"reference":"ChIJ4Wz26Yvq9EcRbeJhnRSK_K8","scope":"GOOGLE","types":["bar","restaurant","point_of_interest","food","establishment"],"user_ratings_total":502,"vicinity":"71 Rue Ney, Lyon"},{"business_status":"OPERATIONAL","geometry":{"location":{"lat":45.76170900000000330010152538307011127471923828125,"lng":4.832346199999999925012161838822066783905029296875},"viewport":{"northeast":{"lat":45.76280743029150244183256290853023529052734375,"lng":4.833446280291500585235553444363176822662353515625},"southwest":{"lat":45.76010946970850312709444551728665828704833984375,"lng":4.83074831970849682960533755249343812465667724609375}}},"icon":"https:\/\/maps.gstatic.com\/mapfiles\/place_api\/icons\/v1\/png_71\/restaurant-71.png","icon_background_color":"#FF9E67","icon_mask_base_uri":"https:\/\/maps.gstatic.com\/mapfiles\/place_api\/icons\/v2\/restaurant_pinlet","name":"Caf\u00e9 L\u00e9one","opening_hours":{"open_now":false},"photos":[{"height":2250,"html_attributions":["<a href=\"https:\/\/maps.google.com\/maps\/contrib\/116593580791046639670\">Adam Witkowski<\/a>"],"photo_reference":"AW30NDzW8u7mS2vnrY2kHhnDk1ayOTbx3v2oMZu7CP_aHmEq6D96Dl9GyyCOSchKqhMn3ijqk5Ee5qfdukbhH537hLF83OBgQnWEDEfCG4yNuGryVfyecdsNwR_cBhBT-tu7qkaOf1TqfFoKEYQxTD7zv135_I7H7-yfHEC0Ow0qTc2A4PU2","width":4000}],"place_id":"ChIJC8qErVXq9EcRIwUqUONq1Cg","plus_code":{"compound_code":"QR6J+MW Lyon, France","global_code":"8FQ6QR6J+MW"},"price_level":2,"rating":3.899999999999999911182158029987476766109466552734375,"reference":"ChIJC8qErVXq9EcRIwUqUONq1Cg","scope":"GOOGLE","types":["bar","restaurant","point_of_interest","food","establishment"],"user_ratings_total":316,"vicinity":"8 Rue de la Monnaie, Lyon"},{"business_status":"OPERATIONAL","geometry":{"location":{"lat":45.76291909999999774072421132586896419525146484375,"lng":4.83297650000000000858335624798201024532318115234375},"viewport":{"northeast":{"lat":45.76423548029149657168090925551950931549072265625,"lng":4.8344922302915023237801506184041500091552734375},"southwest":{"lat":45.76153751970849725694279186427593231201171875,"lng":4.8317942697084976799715150264091789722442626953125}}},"icon":"https:\/\/maps.gstatic.com\/mapfiles\/place_api\/icons\/v1\/png_71\/restaurant-71.png","icon_background_color":"#FF9E67","icon_mask_base_uri":"https:\/\/maps.gstatic.com\/mapfiles\/place_api\/icons\/v2\/restaurant_pinlet","name":"Plein Sud","opening_hours":{"open_now":false},"photos":[{"height":2957,"html_attributions":["<a href=\"https:\/\/maps.google.com\/maps\/contrib\/102599208090113813567\">Plein Sud<\/a>"],"photo_reference":"AW30NDzhhI1jxyBn0swVXHVVJGOOIJdURp0jpuByPFA6lQCfUMtDN0KoIao1Yr6WeDRNzAsGy4FUd6I1Wf5dgIMlPv06Y5z5v5EEFmQF34Y6C4OKH6s2I1rfZFjRw463wxBXJkrtb-REB3uX6CmfFE-uaqQk1eygkpKgE1bXc-tXCwrRbdtG","width":2957}],"place_id":"ChIJw1BxllXq9EcRBUMrh9wAlwU","plus_code":{"compound_code":"QR7M+55 Lyon, France","global_code":"8FQ6QR7M+55"},"price_level":2,"rating":4.4000000000000003552713678800500929355621337890625,"reference":"ChIJw1BxllXq9EcRBUMrh9wAlwU","scope":"GOOGLE","types":["restaurant","bar","point_of_interest","food","establishment"],"user_ratings_total":143,"vicinity":"3 Rue Tupin, Lyon"},{"business_status":"OPERATIONAL","geometry":{"location":{"lat":45.76328860000000275931597570888698101043701171875,"lng":4.83452310000000107237383417668752372264862060546875},"viewport":{"northeast":{"lat":45.76468013029150228021535440348088741302490234375,"lng":4.8358121802915032816372331581078469753265380859375},"southwest":{"lat":45.7619821697085029654772370122373104095458984375,"lng":4.83311421970849863782859756611287593841552734375}}},"icon":"https:\/\/maps.gstatic.com\/mapfiles\/place_api\/icons\/v1\/png_71\/restaurant-71.png","icon_background_color":"#FF9E67","icon_mask_base_uri":"https:\/\/maps.gstatic.com\/mapfiles\/place_api\/icons\/v2\/restaurant_pinlet","name":"Le Grand Caf\u00e9 des N\u00e9gociants","opening_hours":{"open_now":true},"photos":[{"height":2736,"html_attributions":["<a href=\"https:\/\/maps.google.com\/maps\/contrib\/103519051769510472216\">valerie coffy<\/a>"],"photo_reference":"AW30NDzGYSEIGcpC6gdlDSJeDqVCqqdDf9hjAjWuCGtextg-BnpMEiVBMbuPIR0pae8w2W8QkAcqS24HcizuxqaMywAonWrnNkzeW5rnrF5OSg1qdt-urX1CR9MYPVMHud59Vr9lx9Cyn3fyfZiDtrMgfhL4_XYj-dvpW4aH1nAiY5ivDo6F","width":3648}],"place_id":"ChIJXVyu5FXq9EcRFejRBgQRyDc","plus_code":{"compound_code":"QR7M+8R Lyon, France","global_code":"8FQ6QR7M+8R"},"price_level":3,"rating":3.79999999999999982236431605997495353221893310546875,"reference":"ChIJXVyu5FXq9EcRFejRBgQRyDc","scope":"GOOGLE","types":["bar","cafe","restaurant","point_of_interest","food","establishment"],"user_ratings_total":2745,"vicinity":"1 Place Francisque R\u00e9gaud, Lyon"},{"business_status":"OPERATIONAL","geometry":{"location":{"lat":45.76930029999999760548234917223453521728515625,"lng":4.83542280000000079809296948951669037342071533203125},"viewport":{"northeast":{"lat":45.7706515302915022402885369956493377685546875,"lng":4.83676813029150221012741894810460507869720458984375},"southwest":{"lat":45.76795356970850292555041960440576076507568359375,"lng":4.83407016970849756631878335610963404178619384765625}}},"icon":"https:\/\/maps.gstatic.com\/mapfiles\/place_api\/icons\/v1\/png_71\/bar-71.png","icon_background_color":"#FF9E67","icon_mask_base_uri":"https:\/\/maps.gstatic.com\/mapfiles\/place_api\/icons\/v2\/bar_pinlet","name":"Le Trou","opening_hours":{"open_now":true},"photos":[{"height":3024,"html_attributions":["<a href=\"https:\/\/maps.google.com\/maps\/contrib\/101640609063575719811\">Le Trou<\/a>"],"photo_reference":"AW30NDwQRcJlIMuCl_CcCwHsCq1GXS8QcBJVeY0O-l9yUZ3y9Q5VptukM7HvWN8kgwy4RCBNxNWyytgam3tXbVSOwlLND71uiW4t7Kl3C6a9Zd9azWdYsxr7bBgi6lqUsS0v23GphuviKQOx-GwW21CyIETNDhh9AHFvDE3paBW-EdBndrKd","width":4032}],"place_id":"ChIJz7oNBfzq9EcRHVmXT6E9W0M","plus_code":{"compound_code":"QR9P+P5 Lyon, France","global_code":"8FQ6QR9P+P5"},"price_level":1,"rating":3.79999999999999982236431605997495353221893310546875,"reference":"ChIJz7oNBfzq9EcRHVmXT6E9W0M","scope":"GOOGLE","types":["bar","point_of_interest","establishment"],"user_ratings_total":74,"vicinity":"6 Rue Romarin, Lyon"},{"business_status":"OPERATIONAL","geometry":{"location":{"lat":45.76197499999999962483343551866710186004638671875,"lng":4.83289759999999990469632393796928226947784423828125},"viewport":{"northeast":{"lat":45.7633439302914979407432838343083858489990234375,"lng":4.83446048029150343694482216960750520229339599609375},"southwest":{"lat":45.76064596970849862600516644306480884552001953125,"lng":4.83176251970849879313618657761253416538238525390625}}},"icon":"https:\/\/maps.gstatic.com\/mapfiles\/place_api\/icons\/v1\/png_71\/restaurant-71.png","icon_background_color":"#FF9E67","icon_mask_base_uri":"https:\/\/maps.gstatic.com\/mapfiles\/place_api\/icons\/v2\/restaurant_pinlet","name":"Eden Rock Caf\u00e9","opening_hours":{"open_now":true},"photos":[{"height":780,"html_attributions":["<a href=\"https:\/\/maps.google.com\/maps\/contrib\/103306136489315854494\">Eden Rock Caf\u00e9<\/a>"],"photo_reference":"AW30NDzNKDunsu3Cy8xZtPjvRofUprwuR7Vh-WSgO8Q8Jwk8MMigImfc-YncGkmmdE_JegfB5_vmfSAl3ieP_I0m9nG6DFs0lrCEI5LPP_dmMV5psIHVlkBpmCuWmNKLLjSOD-zaXh7KEqScffjX0qsRfwEWzfqYMRDKNav3E795X_tujHg","width":1303}],"place_id":"ChIJo6Yst1Xq9EcRqN-60uYj5QE","plus_code":{"compound_code":"QR6M+Q5 Lyon, France","global_code":"8FQ6QR6M+Q5"},"price_level":2,"rating":4,"reference":"ChIJo6Yst1Xq9EcRqN-60uYj5QE","scope":"GOOGLE","types":["restaurant","bar","point_of_interest","food","establishment"],"user_ratings_total":1245,"vicinity":"68 Rue Merci\u00e8re, Lyon"}]},{"type":"D","id":null,"name":null,"start":"13:30","end":"14:00","P\/S":null},{"type":"A","id":"movie_rental","name":"Location de films","start":"14:00","end":"16:00","P\/S":"P","candidates":[{"business_status":"OPERATIONAL","geometry":{"location":{"lat":45.76668730000000095969880931079387664794921875,"lng":4.8317479999999992656967151560820639133453369140625},"viewport":{"northeast":{"lat":45.768187730291487014255835674703121185302734375,"lng":4.833120230291502394948111032135784626007080078125},"southwest":{"lat":45.76548976970848769951771828345954418182373046875,"lng":4.83042226970849686296105574001558125019073486328125}}},"icon":"https:\/\/maps.gstatic.com\/mapfiles\/place_api\/icons\/v1\/png_71\/shopping-71.png","icon_background_color":"#4B96F3","icon_mask_base_uri":"https:\/\/maps.gstatic.com\/mapfiles\/place_api\/icons\/v2\/shopping_pinlet","name":"Librairie La Bourse","opening_hours":{"open_now":false},"photos":[{"height":1365,"html_attributions":["<a href=\"https:\/\/maps.google.com\/maps\/contrib\/100394045541108540223\">Librairie La Bourse<\/a>"],"photo_reference":"AW30NDwf_hwRj2a5F1GrgbS7XaZp2QOY8dFWPynflP3uM996DUVq9ZEDzJqmDo7N33EtZ4zGkJwWS55toS_SMN7be-tUGWs_4bkZ5UglfZVJ6BmCvaVQrL4EoSLjBqTJ7jdRic9LLsgKfqE6CYVe9aTwAi8K1Q2z-MhufUCVdR6qqVo7l_Uu","width":2048}],"place_id":"ChIJ81fmTv7q9EcRHtP5Dty4nqw","plus_code":{"compound_code":"QR8J+MM Lyon, France","global_code":"8FQ6QR8J+MM"},"rating":4.29999999999999982236431605997495353221893310546875,"reference":"ChIJ81fmTv7q9EcRHtP5Dty4nqw","scope":"GOOGLE","types":["book_store","movie_rental","electronics_store","home_goods_store","store","point_of_interest","establishment"],"user_ratings_total":357,"vicinity":"8 Rue Lanterne, Lyon"},{"business_status":"CLOSED_TEMPORARILY","geometry":{"location":{"lat":45.77354459999998681496435892768204212188720703125,"lng":4.8377581000000002831029632943682372570037841796875},"viewport":{"northeast":{"lat":45.77487618029149274434530525468289852142333984375,"lng":4.8391441302915030320264122565276920795440673828125},"southwest":{"lat":45.7721782197084934296071878634393215179443359375,"lng":4.83644616970849927639619636465795338153839111328125}}},"icon":"https:\/\/maps.gstatic.com\/mapfiles\/place_api\/icons\/v1\/png_71\/generic_business-71.png","icon_background_color":"#13B5C7","icon_mask_base_uri":"https:\/\/maps.gstatic.com\/mapfiles\/place_api\/icons\/v2\/generic_pinlet","name":"Dreamlead Interactive","permanently_closed":true,"place_id":"ChIJ8WjhteTq9EcRhhQdJeyjwj8","plus_code":{"compound_code":"QRFQ+C4 Lyon, France","global_code":"8FQ6QRFQ+C4"},"rating":1,"reference":"ChIJ8WjhteTq9EcRhhQdJeyjwj8","scope":"GOOGLE","types":["movie_rental","point_of_interest","establishment"],"user_ratings_total":1,"vicinity":"3 Place Louis Chazette, Lyon"},{"business_status":"OPERATIONAL","geometry":{"location":{"lat":45.7656759999999991350705386139452457427978515625,"lng":4.8321400000000007679545888095162808895111083984375},"viewport":{"northeast":{"lat":45.7671826802914978316039196215569972991943359375,"lng":4.83336458029150239923410481424070894718170166015625},"southwest":{"lat":45.76448471970849851686580223031342029571533203125,"lng":4.83066661970849775542546922224573791027069091796875}}},"icon":"https:\/\/maps.gstatic.com\/mapfiles\/place_api\/icons\/v1\/png_71\/shopping-71.png","icon_background_color":"#4B96F3","icon_mask_base_uri":"https:\/\/maps.gstatic.com\/mapfiles\/place_api\/icons\/v2\/shopping_pinlet","name":"C\u00e9sar Love Shop","opening_hours":{"open_now":true},"photos":[{"height":3264,"html_attributions":["<a href=\"https:\/\/maps.google.com\/maps\/contrib\/106798238107708822132\">C\u00e9sar Love Shop<\/a>"],"photo_reference":"AW30NDzywujDENc6PY2zUE0bigZnG2xLY9I_T7k8xCtwJLLSCC0MjD42aoe1fUV1bjQp0OwCXPEI8WL6OcxUjb4YzI2szKru8HWeEnPa2EAEdfCCJQB3zmGs6VcuAbBwSJksX2ouYy1vTOr9fbOAUtE6jVzZP_QyzL3tnxyptJMp-GHURTY4","width":2448}],"place_id":"ChIJo_mTof_q9EcR6vVxxnjM7gE","plus_code":{"compound_code":"QR8J+7V Lyon, France","global_code":"8FQ6QR8J+7V"},"rating":4.5,"reference":"ChIJo_mTof_q9EcR6vVxxnjM7gE","scope":"GOOGLE","types":["movie_rental","store","point_of_interest","establishment"],"user_ratings_total":26,"vicinity":"29 Rue Lanterne, Lyon"},{"business_status":"CLOSED_TEMPORARILY","geometry":{"location":{"lat":45.757930299999998169369064271450042724609375,"lng":4.81413720000000022736230675945989787578582763671875},"viewport":{"northeast":{"lat":45.75926903029149883650461561046540737152099609375,"lng":4.8154277802915022022034463589079678058624267578125},"southwest":{"lat":45.75657106970850662719385582022368907928466796875,"lng":4.812729819708497558394810766912996768951416015625}}},"icon":"https:\/\/maps.gstatic.com\/mapfiles\/place_api\/icons\/v1\/png_71\/shopping-71.png","icon_background_color":"#4B96F3","icon_mask_base_uri":"https:\/\/maps.gstatic.com\/mapfiles\/place_api\/icons\/v2\/shopping_pinlet","name":"Hot Socket","permanently_closed":true,"place_id":"ChIJIUUCXKTr9EcRlk-4NiirmFU","plus_code":{"compound_code":"QR57+5M Lyon, France","global_code":"8FQ6QR57+5M"},"reference":"ChIJIUUCXKTr9EcRlk-4NiirmFU","scope":"GOOGLE","types":["movie_rental","electronics_store","home_goods_store","store","point_of_interest","establishment"],"vicinity":"80 Rue de Trion, Lyon"},{"business_status":"OPERATIONAL","geometry":{"location":{"lat":45.76522300000001308717401116155087947845458984375,"lng":4.83322050000000036362735045258887112140655517578125},"viewport":{"northeast":{"lat":45.76662118029150150277928332798182964324951171875,"lng":4.83458468029150179035013934480957686901092529296875},"southwest":{"lat":45.7639232197085021880411659367382526397705078125,"lng":4.83188671970849714654150375281460583209991455078125}}},"icon":"https:\/\/maps.gstatic.com\/mapfiles\/place_api\/icons\/v1\/png_71\/generic_business-71.png","icon_background_color":"#13B5C7","icon_mask_base_uri":"https:\/\/maps.gstatic.com\/mapfiles\/place_api\/icons\/v2\/generic_pinlet","name":"O'CD","opening_hours":{"open_now":false},"photos":[{"height":1536,"html_attributions":["<a href=\"https:\/\/maps.google.com\/maps\/contrib\/117178017528484792927\">O&#39;CD<\/a>"],"photo_reference":"AW30NDwnXDVuP3PAZnJTfeSxme-l9F2Su8Sm2qvJknn95imOqXI37b1nYctBoLg0GQODYT3PyJ9icWgrec8kIE_-CsBs7bCQya8L_9DspH9satXOfjG562ShAGYnoCOsl2SUkeaAa4JrYaZruhztaiKonBZVFrARzjVwtEZOdAKMDTfPjP26","width":2048}],"place_id":"ChIJIwn7Ev_q9EcRYn9LlBNnh9I","plus_code":{"compound_code":"QR8M+37 Lyon, France","global_code":"8FQ6QR8M+37"},"rating":4.29999999999999982236431605997495353221893310546875,"reference":"ChIJIwn7Ev_q9EcRYn9LlBNnh9I","scope":"GOOGLE","types":["movie_rental","electronics_store","home_goods_store","store","point_of_interest","establishment"],"user_ratings_total":215,"vicinity":"39 Rue Paul Chenavard, Lyon"},{"business_status":"OPERATIONAL","geometry":{"location":{"lat":45.7561261999999970839780871756374835968017578125,"lng":4.8309981000000004058847480337135493755340576171875},"viewport":{"northeast":{"lat":45.757436280291500452221953310072422027587890625,"lng":4.8323670302915022745082751498557627201080322265625},"southwest":{"lat":45.75473831970850113748383591882884502410888671875,"lng":4.829669069708497630699639557860791683197021484375}}},"icon":"https:\/\/maps.gstatic.com\/mapfiles\/place_api\/icons\/v1\/png_71\/generic_business-71.png","icon_background_color":"#13B5C7","icon_mask_base_uri":"https:\/\/maps.gstatic.com\/mapfiles\/place_api\/icons\/v2\/generic_pinlet","name":"O'CD","opening_hours":{"open_now":false},"photos":[{"height":1779,"html_attributions":["<a href=\"https:\/\/maps.google.com\/maps\/contrib\/110103290255415558107\">O&#39;CD<\/a>"],"photo_reference":"AW30NDw-q9HetDV0lQvvSdUWA0Ho53R7Gz5VyQ3rogB2oOepPwZIJkOXMaLq14EKMk854yFsYqc2dRbLeFEyj17ADNkk2dlJoxD8ooKlRWwTPRv-Bf33vyWPu0ikEiglOgnOn0JZzpxgKpWa5sjhHLFzSR6Kg7InZX8bYoH1tr207uA9d7jp","width":3163}],"place_id":"ChIJHXtUWFLq9EcRcUzFheNO1f0","plus_code":{"compound_code":"QR4J+F9 Lyon, France","global_code":"8FQ6QR4J+F9"},"rating":4.29999999999999982236431605997495353221893310546875,"reference":"ChIJHXtUWFLq9EcRcUzFheNO1f0","scope":"GOOGLE","types":["movie_rental","electronics_store","home_goods_store","store","point_of_interest","establishment"],"user_ratings_total":241,"vicinity":"8 Rue Victor Hugo, Lyon"},{"business_status":"OPERATIONAL","geometry":{"location":{"lat":45.7638984000000021978848963044583797454833984375,"lng":4.85274500000000141852751767146401107311248779296875},"viewport":{"northeast":{"lat":45.7652041802914908430466311983764171600341796875,"lng":4.85415878029150160699600746738724410533905029296875},"southwest":{"lat":45.7625062197084986337358714081346988677978515625,"lng":4.8514608197084978513657915755175054073333740234375}}},"icon":"https:\/\/maps.gstatic.com\/mapfiles\/place_api\/icons\/v1\/png_71\/generic_business-71.png","icon_background_color":"#7B9EB0","icon_mask_base_uri":"https:\/\/maps.gstatic.com\/mapfiles\/place_api\/icons\/v2\/generic_pinlet","name":"anfa vid\u00e9o","opening_hours":{"open_now":false},"place_id":"ChIJVTwYmorq9EcRgGJI4WJCldE","plus_code":{"compound_code":"QV73+H3 Lyon, France","global_code":"8FQ6QV73+H3"},"reference":"ChIJVTwYmorq9EcRgGJI4WJCldE","scope":"GOOGLE","types":["movie_rental","home_goods_store","store","point_of_interest","establishment"],"vicinity":"3 Rue Juliette R\u00e9camier, Lyon"},{"business_status":"OPERATIONAL","geometry":{"location":{"lat":45.76658330000000063364495872519910335540771484375,"lng":4.831918800000000402405930799432098865509033203125},"viewport":{"northeast":{"lat":45.76813903029150054635465494357049465179443359375,"lng":4.83320953029150057744800506043247878551483154296875},"southwest":{"lat":45.7654410697085012316165375523269176483154296875,"lng":4.83051156970849770999620886868797242641448974609375}}},"icon":"https:\/\/maps.gstatic.com\/mapfiles\/place_api\/icons\/v1\/png_71\/shopping-71.png","icon_background_color":"#4B96F3","icon_mask_base_uri":"https:\/\/maps.gstatic.com\/mapfiles\/place_api\/icons\/v2\/shopping_pinlet","name":"Librairie La Bourse","opening_hours":{"open_now":false},"photos":[{"height":632,"html_attributions":["<a href=\"https:\/\/maps.google.com\/maps\/contrib\/101989466468497622954\">Librairie La Bourse<\/a>"],"photo_reference":"AW30NDwtlw3oBqNOwzEk10y2zu8Gn-NpcYkq-fa4yMEVxNAkCo6gilfBSiQndXLyReL4GuOVdDg3Ueqgr9X8zmcPtWP0fizEO_dl0WM0Y759h1UXU3ouQ3Wx9yGPYjcnGqeEVzS2nUSeR4eGFJUTwfgqB4dj2cTg3w41ZHkjMT_-xsd0xDoX","width":866}],"place_id":"ChIJnWJGBc3r9EcRexUKEa1X-T4","plus_code":{"compound_code":"QR8J+JQ Lyon, France","global_code":"8FQ6QR8J+JQ"},"rating":4.79999999999999982236431605997495353221893310546875,"reference":"ChIJnWJGBc3r9EcRexUKEa1X-T4","scope":"GOOGLE","types":["book_store","movie_rental","store","point_of_interest","establishment"],"user_ratings_total":24,"vicinity":"13bis Rue Lanterne, Lyon"},{"business_status":"OPERATIONAL","geometry":{"location":{"lat":45.7547760000000067748260335065424442291259765625,"lng":4.82962199999999963750951792462728917598724365234375},"viewport":{"northeast":{"lat":45.75603938029149730937206186354160308837890625,"lng":4.83099383029150342139246276929043233394622802734375},"southwest":{"lat":45.75334141970851220548865967430174350738525390625,"lng":4.8282958697084978894054074771702289581298828125}}},"icon":"https:\/\/maps.gstatic.com\/mapfiles\/place_api\/icons\/v1\/png_71\/shopping-71.png","icon_background_color":"#4B96F3","icon_mask_base_uri":"https:\/\/maps.gstatic.com\/mapfiles\/place_api\/icons\/v2\/shopping_pinlet","name":"Librairie de l'Emmanuel de Lyon","opening_hours":{"open_now":false},"photos":[{"height":2322,"html_attributions":["<a href=\"https:\/\/maps.google.com\/maps\/contrib\/117960298191983756553\">Guillaume Bourgey<\/a>"],"photo_reference":"AW30NDzum24NNLNkf_cyHW-OIy2Z2qDyjm1YKhqVGZq3oT0Uq589UycK_BlpIR6OD0uXrqBXIAJ-8NkMX54DnU1RtIiAeTazCvgS-4q4KwlileGWfRjws6g27WrL3CAHG5__-XiIdFYUx_6QsMjEHTJfSLh1_gQIfa7A4Gs1OHI9n0OfghTP","width":4128}],"place_id":"ChIJrbhFnFLq9EcRgAVYRCfsZ_s","plus_code":{"compound_code":"QR3H+WR Lyon, France","global_code":"8FQ6QR3H+WR"},"rating":4.79999999999999982236431605997495353221893310546875,"reference":"ChIJrbhFnFLq9EcRgAVYRCfsZ_s","scope":"GOOGLE","types":["movie_rental","book_store","electronics_store","home_goods_store","store","point_of_interest","establishment"],"user_ratings_total":71,"vicinity":"20 Rue Sainte-H\u00e9l\u00e8ne, Lyon"},{"business_status":"CLOSED_TEMPORARILY","geometry":{"location":{"lat":45.74762869999999992387529346160590648651123046875,"lng":4.83483210000000074302306529716588556766510009765625},"viewport":{"northeast":{"lat":45.7489005302914932826752192340791225433349609375,"lng":4.836172880291503162197841447778046131134033203125},"southwest":{"lat":45.7462025697085010733644594438374042510986328125,"lng":4.83347491970849940656762555590830743312835693359375}}},"icon":"https:\/\/maps.gstatic.com\/mapfiles\/place_api\/icons\/v1\/png_71\/generic_business-71.png","icon_background_color":"#13B5C7","icon_mask_base_uri":"https:\/\/maps.gstatic.com\/mapfiles\/place_api\/icons\/v2\/generic_pinlet","name":"Leroy Paribas - Lyon","permanently_closed":true,"place_id":"ChIJP-piCjvr9EcRukt-paQ861c","plus_code":{"compound_code":"PRXM+3W Lyon, France","global_code":"8FQ6PRXM+3W"},"reference":"ChIJP-piCjvr9EcRukt-paQ861c","scope":"GOOGLE","types":["movie_rental","store","point_of_interest","establishment"],"vicinity":"Rue Raulin, Lyon"}]}]